timestamp(unix),attitude_roll(radians),attitude_pitch(radians),attitude_yaw(radians),rotation_rate_x(radians/s),rotation_rate_y(radians/s),rotation_rate_z(radians/s),gravity_x(G),gravity_y(G),gravity_z(G),user_acc_x(G),user_acc_y(G),user_acc_z(G),magnetic_field_x(microteslas),magnetic_field_y(microteslas),magnetic_field_z(microteslas),latitude(degree),longitude(degree),altitude(meter),speed(m/s),course(degree),timestamp(unix)
1480499939.58,-0.031741,0.434384,2.800426,0.528661,0.615299,0.495812,-0.028788,-0.420852,-0.906672,-0.004583,-0.075440,-0.153157,5.000975,-34.387592,7.649590,,,,,,
1480499939.57,-0.035866,0.428400,2.794570,0.688093,0.618474,0.420111,-0.032618,-0.415416,-0.909047,-0.000753,-0.080876,-0.150783,5.000975,-34.387592,7.649590,,,,,,
1480499939.59,-0.027594,0.438569,2.806810,0.375347,0.654001,0.530313,-0.024979,-0.424645,-0.905016,0.075562,-0.094734,-0.245650,4.575212,-34.324322,8.181738,,,,,,
1480499939.60,-0.022437,0.442203,2.811894,0.361733,0.687113,0.347085,-0.020277,-0.427932,-0.903583,0.106077,-0.100343,-0.134045,4.575212,-34.324322,8.181738,,,,,,
1480499939.61,-0.013526,0.447441,2.808844,0.518956,0.726540,-0.500390,-0.012194,-0.432660,-0.901475,0.093828,-0.108188,0.018601,4.107945,-34.300846,8.521112,,,,,,
1480499939.62,-0.001294,0.453669,2.797966,0.585903,0.679089,-0.995601,-0.001163,-0.438267,-0.898844,0.052387,-0.089687,0.135066,4.107945,-34.300846,8.521112,,,,,,
1480499939.63,0.009075,0.459252,2.787755,0.494123,0.483292,-0.760471,0.008135,-0.443278,-0.896347,0.020903,-0.041158,0.190827,4.410071,-34.147816,8.972773,,,,,,
1480499939.64,0.013401,0.463378,2.782919,0.360044,0.098319,-0.282387,0.011987,-0.446973,-0.894467,0.008505,0.045987,0.155667,4.410071,-34.147816,8.972773,,,,,,
1480499939.65,0.011398,0.466465,2.782984,0.263890,-0.265948,0.091053,0.010180,-0.449732,-0.893106,-0.042269,0.168299,0.092752,4.794234,-33.996326,9.343330,,,,,,
1480499939.67,0.005651,0.468577,2.785689,0.180109,-0.456930,0.257883,0.005042,-0.451617,-0.892198,-0.126242,0.138858,0.028413,4.794234,-33.996326,9.343330,,,,,,
1480499939.68,-0.000381,0.471034,2.789195,0.259625,-0.385337,0.296968,-0.000340,-0.453808,-0.891099,-0.121730,0.228436,0.077425,4.769697,-33.959671,9.488058,,,,,,
1480499939.69,-0.005635,0.475228,2.792421,0.440927,-0.362727,0.249539,-0.005010,-0.457541,-0.889174,0.200750,0.029380,0.140029,4.705644,-33.951202,9.550149,,,,,,
1480499939.70,-0.012070,0.481670,2.794299,0.660485,-0.589556,0.108931,-0.010696,-0.463260,-0.886158,0.234405,0.049640,0.153965,4.644991,-33.924168,9.675097,,,,,,
1480499939.71,-0.019789,0.490940,2.793347,0.937051,-0.811008,-0.171010,-0.017451,-0.471455,-0.881718,0.258509,0.075596,0.035160,4.644991,-33.924168,9.675097,,,,,,
1480499939.72,-0.028080,0.503481,2.789134,1.238092,-1.017780,-0.431022,-0.024592,-0.482477,-0.875563,0.265651,0.086619,0.029005,4.644991,-33.924168,9.675097,,,,,,
1480499939.73,-0.037839,0.518596,2.783043,1.434028,-1.244907,-0.565422,-0.032856,-0.495661,-0.867894,0.227818,0.150263,-0.001689,5.001223,-33.623203,10.511923,,,,,,
1480499939.74,-0.050066,0.533760,2.778098,1.363553,-1.418964,-0.380974,-0.043084,-0.508774,-0.859821,0.085320,0.248032,0.005543,5.001223,-33.623203,10.511923,,,,,,
1480499939.75,-0.067424,0.547690,2.784110,1.348140,-1.223229,0.695663,-0.057518,-0.520717,-0.851790,0.024743,0.387630,-0.078264,5.661361,-33.238918,11.364672,,,,,,
1480499939.76,-0.087299,0.562910,2.802184,1.593401,-0.913259,1.476702,-0.073736,-0.533650,-0.842485,-0.025645,0.473530,-0.084715,5.661361,-33.238918,11.364672,,,,,,
1480499939.77,-0.108433,0.577848,2.825199,1.511793,-0.768258,1.688693,-0.090650,-0.546223,-0.832720,0.005140,0.481083,-0.018934,5.339766,-32.980827,12.238651,,,,,,
1480499939.78,-0.123534,0.587865,2.846935,0.973549,-0.065301,1.514735,-0.102535,-0.554586,-0.825785,0.111690,0.414831,0.099314,5.339766,-32.980827,12.238651,,,,,,
1480499939.79,-0.124630,0.591641,2.864007,0.368928,1.049065,1.190787,-0.103178,-0.557724,-0.823588,0.413786,0.334198,0.270534,4.348800,-32.784157,13.127059,,,,,,
1480499939.81,-0.098537,0.587023,2.885814,-0.305141,1.969888,0.680760,-0.081909,-0.553885,-0.828555,0.193786,-0.148020,0.265475,3.791492,-32.766727,13.341620,,,,,,
1480499939.80,-0.114337,0.590663,2.876625,-0.070626,1.766349,0.922442,-0.094758,-0.556912,-0.825149,0.206635,-0.144993,0.262069,3.791492,-32.766727,13.341620,,,,,,
1480499939.83,-0.083504,0.583286,2.891389,-0.285758,1.557438,0.397084,-0.069616,-0.550769,-0.831749,-0.125712,-0.346768,0.244789,2.672706,-32.860992,13.380751,,,,,,
1480499939.84,-0.075470,0.581353,2.895270,-0.104991,0.738434,0.316025,-0.063012,-0.549155,-0.833342,-0.368461,-0.479165,-0.519182,2.267494,-32.917305,13.316990,,,,,,
1480499939.85,-0.076504,0.581566,2.899594,0.092149,-0.070686,0.334190,-0.063865,-0.549333,-0.833159,-0.244165,-0.445357,-0.924119,2.267494,-32.917305,13.316990,,,,,,
1480499939.86,-0.083129,0.583790,2.902682,0.268877,-0.567052,0.175552,-0.069281,-0.551190,-0.831498,-0.238748,-0.443500,-0.925780,2.267494,-32.917305,13.316990,,,,,,
1480499939.87,-0.091915,0.587864,2.903549,0.425945,-0.829397,-0.009500,-0.076377,-0.554585,-0.828614,-0.210579,-0.574672,-1.258330,1.871671,-32.919479,13.372999,,,,,,
1480499939.88,-0.099359,0.593906,2.903304,0.611571,-0.614293,-0.079509,-0.082210,-0.559603,-0.824674,-0.341847,-0.793394,-1.512790,1.871671,-32.919479,13.372999,,,,,,
1480499939.89,-0.100627,0.601890,2.903718,0.777054,0.102744,-0.028311,-0.082804,-0.566201,-0.820098,-0.307577,-0.807655,-1.644502,2.099886,-32.781796,13.673958,,,,,,
1480499939.90,-0.093676,0.609502,2.903697,0.664696,0.807701,-0.107081,-0.076696,-0.572460,-0.816338,-0.202815,-0.698292,-1.654151,2.099886,-32.781796,13.673958,,,,,,
1480499939.91,-0.079961,0.614978,2.900797,0.430413,1.197753,-0.322201,-0.065242,-0.576940,-0.814176,-0.202733,-0.610926,-1.577501,-1.864166,-31.669458,16.145084,,,,,,
1480499939.92,-0.062824,0.618113,2.894400,0.207357,1.263961,-0.569593,-0.051166,-0.579498,-0.813366,-0.301327,-0.670059,-1.054264,-1.969729,-31.589783,16.288010,,,,,,
1480499939.93,-0.042388,0.619806,2.884007,0.098482,1.384169,-0.888054,-0.034493,-0.580877,-0.813260,-0.318001,-0.668680,-1.054370,-1.969729,-31.589783,16.288010,,,,,,
1480499939.94,-0.019492,0.622076,2.869311,0.226154,1.289889,-1.179996,-0.015839,-0.582724,-0.812516,-0.341705,-0.714304,-0.826537,-1.983656,-31.552370,16.358677,,,,,,
1480499939.95,0.001018,0.626305,2.852564,0.429779,0.909867,-1.295974,0.000825,-0.586155,-0.810199,-0.340318,-0.637860,-0.656018,-1.983656,-31.552370,16.358677,,,,,,
1480499939.96,0.018629,0.631518,2.835034,0.517670,0.612113,-1.331666,0.015036,-0.590371,-0.806992,-0.230596,-0.397239,-0.550857,-1.586193,-31.500107,16.502140,,,,,,
1480499939.98,0.037107,0.637683,2.814133,0.665900,0.600540,-1.664218,0.029808,-0.595335,-0.802924,-0.202675,-0.297182,-0.483544,-1.586193,-31.500107,16.502140,,,,,,
1480499939.99,0.061626,0.645730,2.788100,0.908169,0.899858,-1.928276,0.049187,-0.601782,-0.797145,-0.179223,-0.185053,-0.397908,-0.842111,-31.337852,16.861885,,,,,,
1480499940.00,0.083679,0.654667,2.770279,0.913175,1.133997,-0.962300,0.066301,-0.608895,-0.790475,-0.135545,-0.142829,-0.216819,-0.842111,-31.337852,16.861885,,,,,,
1480499940.01,0.102195,0.662504,2.762704,0.722931,1.324523,-0.447226,0.080436,-0.615093,-0.784341,-0.008415,-0.119832,0.030923,-0.129987,-31.027271,17.446632,,,,,,
1480499940.02,0.121868,0.667810,2.754194,0.525729,1.321838,-0.588831,0.095451,-0.619268,-0.779356,0.141945,-0.081034,0.280989,-0.129987,-31.027271,17.446632,,,,,,
1480499940.03,0.135697,0.673263,2.745650,0.634148,0.557018,-0.552391,0.105762,-0.623540,-0.774605,0.101132,0.029622,0.450722,-0.281542,-30.775608,17.885080,,,,,,
1480499940.04,0.139924,0.681599,2.736018,0.949890,-0.383329,-0.598430,0.108306,-0.630035,-0.768977,-0.144851,0.343796,0.590586,-0.252325,-30.664503,18.075338,,,,,,
1480499940.05,0.137785,0.692515,2.726367,1.142779,-0.845779,-0.523207,0.105710,-0.638475,-0.762348,-0.142255,0.352235,0.583958,-0.252325,-30.664503,18.075338,,,,,,
1480499940.06,0.133789,0.703830,2.718060,1.104761,-0.855730,-0.421076,0.101693,-0.647143,-0.755556,-0.046669,0.518038,0.490358,0.304757,-30.275780,18.718378,,,,,,
1480499940.07,0.131126,0.713758,2.711355,0.940953,-0.593550,-0.314890,0.098835,-0.654679,-0.749418,-0.035801,0.608399,0.244031,0.304757,-30.275780,18.718378,,,,,,
1480499940.08,0.129695,0.722450,2.706942,0.812784,-0.328486,-0.174393,0.097023,-0.661225,-0.743887,0.068520,0.647492,0.113974,0.872136,-29.840412,19.387691,,,,,,
1480499940.09,0.130850,0.729620,2.703719,0.651457,-0.018516,-0.126183,0.097261,-0.666586,-0.739056,0.125807,0.743643,0.263363,0.872136,-29.840412,19.387691,,,,,,
1480499940.10,0.134604,0.735412,2.701156,0.541615,0.252645,-0.100740,0.099515,-0.670893,-0.734847,-0.050610,0.657343,0.934325,1.083779,-29.513485,19.871412,,,,,,
1480499940.11,0.141218,0.741558,2.698016,0.641442,0.473831,-0.155651,0.103791,-0.675438,-0.730076,-0.084473,0.642998,0.938023,1.076105,-29.392641,20.050140,,,,,,
1480499940.13,0.150256,0.750552,2.692705,0.978402,0.492410,-0.264312,0.109471,-0.682043,-0.723072,-0.090153,0.649603,0.931019,1.076105,-29.392641,20.050140,,,,,,
1480499940.14,0.158618,0.762960,2.685534,1.285294,0.252463,-0.305142,0.114168,-0.691064,-0.713720,-0.153994,0.714761,0.887579,1.076105,-29.392641,20.050140,,,,,,
1480499940.15,0.163502,0.776436,2.678645,1.301780,-0.073593,-0.228608,0.116126,-0.700742,-0.703901,-0.191474,0.740735,0.762296,1.014404,-28.792677,20.905649,,,,,,
1480499940.16,0.163065,0.788181,2.674098,1.064785,-0.425552,-0.075218,0.114474,-0.709072,-0.695782,-0.204944,0.798839,0.599225,1.090482,-28.492289,21.309475,,,,,,
1480499940.17,0.156983,0.797803,2.673556,0.844072,-0.643317,0.176937,0.109169,-0.715824,-0.689695,-0.167000,0.876773,0.404630,1.090482,-28.492289,21.309475,,,,,,
1480499940.18,0.147021,0.806542,2.677739,0.753410,-0.639417,0.462388,0.101373,-0.721898,-0.684534,-0.101769,0.909932,0.314096,1.313112,-28.023909,21.909580,,,,,,
1480499940.19,0.136094,0.815568,2.685454,0.779424,-0.436880,0.639209,0.092998,-0.728115,-0.679117,-0.013393,0.897884,0.409510,1.313112,-28.023909,21.909580,,,,,,
1480499940.20,0.129123,0.825346,2.692280,0.871107,-0.073640,0.490659,0.087342,-0.734783,-0.672656,0.054550,0.914653,0.597552,1.286219,-27.675545,22.349571,,,,,,
1480499940.21,0.133725,0.833929,2.693321,0.726269,0.722578,0.047587,0.089592,-0.740577,-0.665972,0.124276,0.936012,0.768389,1.286219,-27.675545,22.349571,,,,,,
1480499940.22,0.152691,0.837178,2.686804,0.210504,1.485225,-0.494422,0.101839,-0.742757,-0.661771,0.208936,0.996892,0.883375,0.995935,-27.289577,22.833755,,,,,,
1480499940.23,0.180053,0.832501,2.674443,-0.468010,1.731845,-0.941662,0.120527,-0.739617,-0.662148,0.174242,1.070367,0.976525,0.995935,-27.289577,22.833755,,,,,,
1480499940.24,0.210340,0.821466,2.657974,-0.888426,1.678238,-1.310179,0.142219,-0.732145,-0.666136,-0.607154,1.403059,1.497297,0.604554,-27.266254,22.875299,,,,,,
1480499940.25,0.241466,0.808571,2.638704,-0.869436,1.577867,-1.510126,0.165125,-0.723301,-0.670499,-0.722543,1.431324,1.626111,0.548895,-27.455891,22.648758,,,,,,
1480499940.26,0.273111,0.797407,2.619117,-0.620418,1.693483,-1.473159,0.188422,-0.715547,-0.672673,-0.745841,1.423571,1.628285,0.548895,-27.455891,22.648758,,,,,,
1480499940.27,0.307250,0.787401,2.601518,-0.580609,2.151965,-1.344849,0.213428,-0.708521,-0.672641,-0.693134,1.463709,1.616336,0.650740,-27.816761,22.201300,,,,,,
1480499940.29,0.344200,0.774509,2.586499,-0.934531,2.529932,-1.344620,0.241193,-0.699365,-0.672841,-0.590833,1.482950,1.499470,0.650740,-27.816761,22.201300,,,,,,
1480499940.30,0.379016,0.754657,2.573424,-1.606831,2.334591,-1.535706,0.269552,-0.685039,-0.676804,-0.452597,1.463023,1.345062,0.403202,-28.127592,21.812138,,,,,,
1480499940.31,0.409058,0.727267,2.563709,-2.250837,2.180374,-1.610331,0.297113,-0.664831,-0.685364,-0.279184,1.355779,1.296479,0.403202,-28.127592,21.812138,,,,,,
1480499940.32,0.437897,0.695680,2.556786,-2.543019,2.310408,-1.695150,0.325498,-0.640908,-0.695190,-0.174939,1.214730,1.391433,0.291811,-28.921007,20.750509,,,,,,
1480499940.33,0.468369,0.660842,2.548529,-2.709009,2.372436,-2.076982,0.356394,-0.613782,-0.704454,-0.193354,1.138028,1.468827,0.291811,-28.921007,20.750509,,,,,,
1480499940.34,0.499574,0.619220,2.538351,-3.283173,2.356102,-2.639402,0.390107,-0.580400,-0.714809,-0.197159,1.118395,1.411632,0.445768,-30.007999,19.141960,,,,,,
1480499940.35,0.531299,0.565811,2.534380,-4.529762,2.941288,-2.672523,0.427694,-0.536100,-0.727788,-0.168279,0.979170,1.358647,0.445768,-30.007999,19.141960,,,,,,
1480499940.36,0.562988,0.502161,2.549785,-6.188509,3.945256,-1.786847,0.467825,-0.481320,-0.741263,-0.074652,0.657086,1.150213,1.172569,-31.363413,16.794487,,,,,,
1480499940.37,0.593703,0.428101,2.590177,-8.069748,4.683601,-0.669979,0.508948,-0.415144,-0.754074,0.068063,-0.851778,-0.096223,1.240135,-32.308121,14.890962,,,,,,
1480499940.38,0.615009,0.356474,2.647394,-8.219353,3.639302,0.540550,0.540694,-0.348972,-0.765421,0.963975,-1.795010,-0.656699,0.913798,-33.407566,12.255324,,,,,,
1480499940.39,0.620197,0.302864,2.701507,-6.229708,1.572380,1.121762,0.554743,-0.298255,-0.776726,2.446584,-2.540627,-1.698859,0.913798,-33.407566,12.255324,,,,,,
1480499940.40,0.600968,0.282082,2.737245,-2.386261,-1.716354,1.607260,0.543094,-0.278356,-0.792191,2.458234,-2.560526,-1.683395,0.913798,-33.407566,12.255324,,,,,,
1480499940.41,0.556075,0.299467,2.749537,1.727572,-4.449575,1.843433,0.504364,-0.295011,-0.811533,3.831955,-2.615786,-3.158163,-0.711051,-35.170605,5.442090,,,,,,
1480499940.42,0.503565,0.344017,2.746215,4.259320,-4.994328,1.835161,0.454277,-0.337271,-0.824549,4.775230,-2.299142,-5.456594,-0.711051,-35.170605,5.442090,,,,,,
1480499940.44,0.460796,0.399983,2.736979,5.138883,-4.029253,1.639926,0.409563,-0.389402,-0.824999,4.623610,-2.027590,-7.184370,-1.503962,-34.820168,7.237910,,,,,,
1480499940.45,0.433235,0.453827,2.726194,4.794935,-2.635466,1.238539,0.377314,-0.438408,-0.815740,3.753286,-1.734535,-7.247797,-1.503962,-34.820168,7.237910,,,,,,
1480499940.46,0.420669,0.499564,2.715518,4.094281,-1.332301,0.882245,0.358465,-0.479043,-0.801262,2.907404,-1.157035,-7.185859,-1.927885,-33.790699,11.025665,,,,,,
1480499940.47,0.418720,0.540203,2.704672,3.774290,-0.510571,0.713220,0.348694,-0.514310,-0.783516,1.987396,-0.871417,-5.548531,-1.927885,-33.790699,11.025665,,,,,,
1480499940.48,0.422728,0.579124,2.694005,3.621594,-0.054683,0.729777,0.343356,-0.547291,-0.763269,1.136045,-0.613353,-3.230216,-2.232106,-32.671497,13.952936,,,,,,
1480499940.49,0.429982,0.615522,2.686028,3.237167,0.372066,0.892385,0.340350,-0.577385,-0.742151,0.402203,-0.360878,-1.422171,-2.232106,-32.671497,13.952936,,,,,,
1480499940.50,0.439776,0.647275,2.682899,2.634673,0.867753,1.080196,0.339623,-0.603015,-0.721824,-0.016091,-0.142774,-0.195672,-2.786786,-31.491066,16.359707,,,,,,
1480499940.51,0.449606,0.673124,2.685882,1.891920,1.127349,1.284007,0.339813,-0.623432,-0.704174,0.023163,0.333881,0.987926,-3.266582,-30.955372,17.268116,,,,,,
1480499940.52,0.455576,0.691890,2.695177,1.090984,1.101602,1.401948,0.338803,-0.637994,-0.691503,0.020664,0.519509,1.298971,-3.878864,-30.515375,17.912556,,,,,,
1480499940.53,0.458623,0.706307,2.709216,0.711182,1.138662,1.517554,0.336801,-0.649029,-0.682149,0.022666,0.530544,1.289616,-3.878864,-30.515375,17.912556,,,,,,
1480499940.54,0.460858,0.721123,2.722724,0.883602,0.973451,1.441268,0.334011,-0.660228,-0.672707,-0.068172,0.706249,1.466820,-3.878864,-30.515375,17.912556,,,,,,
1480499940.55,0.462830,0.738223,2.731260,1.269532,0.620717,1.159400,0.330247,-0.672974,-0.661848,-0.122255,0.892579,1.426694,-5.917824,-29.726212,18.666149,,,,,,
1480499940.56,0.464295,0.757564,2.733959,1.594679,0.212277,0.944525,0.325327,-0.687154,-0.649602,-0.142175,1.133229,1.348195,-5.917824,-29.726212,18.666149,,,,,,
1480499940.57,0.463151,0.776497,2.737131,1.397010,0.089050,1.001636,0.318713,-0.700785,-0.638219,-0.208361,1.268396,1.111150,-6.823635,-29.024364,19.445248,,,,,,
1480499940.59,0.458591,0.789900,2.744622,0.715099,0.061122,0.990504,0.311613,-0.710283,-0.631186,-0.338896,1.355455,0.731802,-6.823635,-29.024364,19.445248,,,,,,
1480499940.60,0.450897,0.795954,2.755951,0.016759,0.020937,0.888778,0.304868,-0.714531,-0.629683,-0.482542,1.410180,0.546782,-7.467445,-28.366432,20.166214,,,,,,
1480499940.61,0.440870,0.796149,2.769805,-0.480846,-0.015442,0.809017,0.298480,-0.714667,-0.632582,-0.637912,1.330894,0.562117,-7.467445,-28.366432,20.166214,,,,,,
1480499940.62,0.430880,0.793379,2.784202,-0.654421,0.047978,0.720246,0.292971,-0.712728,-0.637328,-0.609316,1.239995,0.765014,-7.999408,-28.263737,20.106316,,,,,,
1480499940.63,0.423168,0.790718,2.796342,-0.504821,0.089222,0.587993,0.288825,-0.710859,-0.641295,-0.637519,1.132886,1.037871,-8.230732,-28.334465,19.912470,,,,,,
1480499940.64,0.417730,0.790262,2.804869,-0.176867,0.034749,0.464709,0.285465,-0.710537,-0.643153,-0.696613,1.061368,1.047786,-8.230732,-28.334465,19.912470,,,,,,
1480499940.65,0.413618,0.793324,2.808746,0.272410,-0.196310,0.305221,0.281942,-0.712689,-0.642326,-0.677923,1.014004,0.881020,-8.600558,-28.408350,19.649160,,,,,,
1480499940.66,0.409946,0.799877,2.807386,0.696777,-0.511395,0.119426,0.277715,-0.717270,-0.639060,-0.629216,0.981858,0.677131,-8.600558,-28.408350,19.649160,,,,,,
1480499940.67,0.406206,0.808926,2.802176,0.964691,-0.754314,0.001265,0.272747,-0.723546,-0.634106,-0.589733,0.974355,0.459881,-8.637188,-28.200928,19.929880,,,,,,
1480499940.68,0.401039,0.819185,2.795651,1.061468,-0.983781,-0.000612,0.266555,-0.730590,-0.628639,-0.548308,0.987029,0.320488,-8.637188,-28.200928,19.929880,,,,,,
1480499940.69,0.392831,0.829985,2.790894,1.032939,-1.116677,0.160242,0.258350,-0.737921,-0.623480,-0.536915,0.981085,0.245123,-8.288945,-27.774460,20.663155,,,,,,
1480499940.70,0.381744,0.840339,2.789967,0.867075,-1.083950,0.357578,0.248562,-0.744870,-0.619182,-0.515851,0.976544,0.268886,-8.288945,-27.774460,20.663155,,,,,,
1480499940.71,0.369086,0.848116,2.793018,0.508365,-0.925891,0.465617,0.238608,-0.750036,-0.616857,-0.441657,0.951238,0.414510,-7.919067,-27.295378,21.432314,,,,,,
1480499940.72,0.355962,0.851901,2.799153,0.094578,-0.756685,0.475985,0.229501,-0.752534,-0.617270,-0.348962,0.870881,0.579962,-7.919067,-27.295378,21.432314,,,,,,
1480499940.73,0.344064,0.851601,2.805993,-0.243543,-0.586644,0.346895,0.222217,-0.752336,-0.620170,-0.224338,0.753251,0.743384,-7.777806,-27.032356,21.814009,,,,,,
1480499940.75,0.335083,0.849136,2.811719,-0.344013,-0.382441,0.236679,0.217247,-0.750710,-0.623890,-0.198921,0.599907,1.002720,-7.742159,-27.040171,21.816998,,,,,,
1480499940.76,0.329333,0.847335,2.816818,-0.223141,-0.103529,0.256250,0.214093,-0.749519,-0.626406,-0.195768,0.598716,1.005236,-7.742159,-27.040171,21.816998,,,,,,
1480499940.77,0.327353,0.847348,2.822483,-0.082372,0.332321,0.358744,0.212849,-0.749528,-0.626820,-0.216588,0.580643,1.075612,-7.743161,-27.137808,21.695070,,,,,,
1480499940.78,0.330227,0.848511,2.829291,-0.023457,0.885454,0.455889,0.214367,-0.750297,-0.625381,-0.145657,0.582023,0.843505,-7.888694,-27.135981,21.644873,,,,,,
1480499940.79,0.337501,0.849667,2.837041,-0.076858,1.323512,0.488449,0.218623,-0.751060,-0.622987,-0.020320,0.542274,0.712022,-7.888694,-27.135981,21.644873,,,,,,
1480499940.80,0.347763,0.848866,2.844744,-0.294071,1.531003,0.388874,0.225209,-0.750531,-0.621275,-0.026906,0.541745,0.710311,-7.888694,-27.135981,21.644873,,,,,,
1480499940.81,0.357899,0.844371,2.851207,-0.618553,1.317402,0.168378,0.232675,-0.747553,-0.622114,0.046256,0.477122,0.610670,-9.074732,-27.087715,21.236725,,,,,,
1480499940.82,0.364730,0.833782,2.855453,-1.190048,0.793233,-0.217227,0.239729,-0.740478,-0.627871,0.082582,0.420303,0.492785,-9.074732,-27.087715,21.236725,,,,,,
1480499940.83,0.370092,0.812805,2.856723,-2.083485,0.585108,-0.775607,0.248657,-0.726218,-0.640919,0.098389,0.337669,0.317814,-9.635012,-27.421764,20.550102,,,,,,
1480499940.84,0.381750,0.783840,2.855108,-2.551769,1.182365,-1.153744,0.263840,-0.706004,-0.657227,0.061630,0.207774,0.123413,-9.635012,-27.421764,20.550102,,,,,,
1480499940.85,0.403445,0.754894,2.853912,-2.415725,2.191922,-1.076918,0.285940,-0.685211,-0.669869,-0.040990,-0.023666,-0.093376,-9.451736,-28.517956,19.091469,,,,,,
1480499940.86,0.430078,0.728864,2.854232,-2.173921,2.527524,-0.914439,0.311010,-0.666022,-0.678002,-0.389364,-0.920174,-0.349326,-9.497963,-29.122110,18.132421,,,,,,
1480499940.87,0.450233,0.707178,2.857161,-1.818613,1.865399,-0.586128,0.330820,-0.649691,-0.684441,-0.409174,-0.936506,-0.342887,-9.497963,-29.122110,18.132421,,,,,,
1480499940.88,0.460179,0.693784,2.860814,-0.991156,0.885429,-0.233551,0.341445,-0.639451,-0.688852,-0.339995,-1.425658,-0.558721,-9.822473,-30.058123,16.343857,,,,,,
1480499940.90,0.459201,0.694495,2.859515,0.517259,-0.558070,-0.002927,0.340570,-0.639997,-0.688778,0.142279,-1.949160,-1.201450,-9.822473,-30.058123,16.343857,,,,,,
1480499940.91,0.448224,0.711998,2.849862,2.162016,-1.906673,0.126050,0.328083,-0.653348,-0.682274,0.655788,-2.362293,-2.054222,-9.872063,-30.293339,15.872910,,,,,,
1480499940.92,0.433265,0.740817,2.834974,3.027030,-2.369992,0.231964,0.309805,-0.674891,-0.669734,2.146936,-2.052022,-3.577611,-9.624114,-29.975101,16.612139,,,,,,
1480499940.93,0.422090,0.771349,2.820356,2.948250,-1.784007,0.288184,0.293720,-0.697103,-0.654046,2.163021,-2.029810,-3.593299,-9.624114,-29.975101,16.612139,,,,,,
1480499940.94,0.420606,0.798244,2.808066,2.514334,-0.652781,0.278146,0.284989,-0.716132,-0.637132,2.093567,-1.687082,-3.603804,-9.624114,-29.975101,16.612139,,,,,,
1480499940.95,0.429963,0.821023,2.797189,2.148945,0.374087,0.222011,0.284063,-0.731844,-0.619446,1.747202,-1.420607,-2.974991,-8.852188,-28.236355,19.784853,,,,,,
1480499940.96,0.446062,0.840911,2.788157,1.844681,1.020555,0.310776,0.287662,-0.745251,-0.601541,1.207867,-1.267612,-1.816412,-8.852188,-28.236355,19.784853,,,,,,
1480499940.97,0.462179,0.857191,2.785146,1.287845,1.367474,0.566831,0.291870,-0.756007,-0.585889,0.628464,-1.068868,-0.611194,-9.229053,-27.281513,20.919775,,,,,,
1480499940.98,0.473906,0.867221,2.790829,0.470509,1.524501,0.772528,0.295245,-0.762534,-0.575649,-0.184634,-0.514260,0.531964,-9.666010,-26.904362,21.208889,,,,,,
1480499940.99,0.480906,0.870130,2.803062,-0.271287,1.525689,0.764023,0.298240,-0.764413,-0.571600,-0.187629,-0.512382,0.527914,-9.666010,-26.904362,21.208889,,,,,,
1480499941.00,0.486377,0.867719,2.817512,-0.684772,1.556086,0.630076,0.302223,-0.762856,-0.571587,-0.302040,-0.239432,0.653969,-10.784201,-26.606379,21.045071,,,,,,
1480499941.01,0.492583,0.864203,2.831743,-0.660218,1.592250,0.615076,0.307031,-0.760578,-0.572061,-0.290124,-0.030651,0.780267,-10.784201,-26.606379,21.045071,,,,,,
1480499941.02,0.498184,0.863917,2.845007,-0.309285,1.403225,0.721539,0.310334,-0.760392,-0.570523,-0.366380,0.180772,0.915768,-11.841275,-26.739893,20.294226,,,,,,
1480499941.03,0.501904,0.867026,2.855240,0.041158,0.952214,0.643249,0.311315,-0.762408,-0.567289,-0.451345,0.459673,0.908262,-11.841275,-26.739893,20.294226,,,,,,
1480499941.05,0.505050,0.872214,2.858830,0.429129,0.416601,0.353891,0.311180,-0.765755,-0.562838,-0.493843,1.012947,0.560228,-12.780644,-26.654490,19.831453,,,,,,
1480499941.06,0.507847,0.880670,2.855933,0.869754,-0.052449,0.200802,0.309594,-0.771166,-0.556287,-0.392785,1.111192,0.273420,-12.780644,-26.654490,19.831453,,,,,,
1480499941.07,0.509253,0.888908,2.850764,0.745602,-0.280113,0.069452,0.307267,-0.776384,-0.550286,-0.364335,1.145357,0.054879,-13.094952,-26.330179,20.058344,,,,,,
1480499941.08,0.509899,0.891450,2.847127,0.151713,-0.157658,-0.117652,0.306659,-0.777984,-0.548363,-0.510775,1.189162,0.024620,-13.094952,-26.330179,20.058344,,,,,,
1480499941.09,0.510326,0.887698,2.846484,-0.417744,0.042901,-0.217385,0.308317,-0.775621,-0.550775,-0.675382,1.231279,0.096399,-13.008534,-26.079540,20.438419,,,,,,
1480499941.10,0.510653,0.880238,2.849155,-0.753113,0.287251,-0.188293,0.311316,-0.770891,-0.555707,-0.688910,1.093431,0.566022,-12.949962,-26.170671,20.358976,,,,,,
1480499941.11,0.511457,0.871781,2.854083,-0.847505,0.463033,-0.110479,0.314942,-0.765476,-0.561121,-0.692536,1.088017,0.571436,-12.949962,-26.170671,20.358976,,,,,,
1480499941.12,0.512124,0.863608,2.859821,-0.821901,0.463413,-0.060497,0.318372,-0.760191,-0.566346,-0.732084,1.013091,0.904512,-12.996622,-26.543501,19.839954,,,,,,
1480499941.13,0.511676,0.857054,2.865834,-0.665343,0.346006,0.054169,0.320551,-0.755917,-0.570821,-0.662744,0.944424,0.990544,-12.996622,-26.543501,19.839954,,,,,,
1480499941.14,0.508810,0.854034,2.872291,-0.353481,0.125505,0.267803,0.320024,-0.753936,-0.573729,-0.508013,0.841232,0.883970,-13.160839,-26.875015,19.277428,,,,,,
1480499941.15,0.502066,0.855687,2.879631,0.004908,-0.195954,0.533578,0.315548,-0.755022,-0.574780,-0.366726,0.736818,0.676571,-13.160839,-26.875015,19.277428,,,,,,
1480499941.16,0.491006,0.860579,2.888154,0.185238,-0.500667,0.713550,0.307426,-0.758220,-0.574971,-0.253349,0.693508,0.456029,-13.371054,-26.886156,19.116562,,,,,,
1480499941.17,0.476360,0.866535,2.897994,0.215278,-0.718943,0.809050,0.296896,-0.762090,-0.575388,-0.149527,0.658910,0.279902,-13.371054,-26.886156,19.116562,,,,,,
1480499941.18,0.458820,0.872271,2.909556,0.138954,-0.833419,0.881650,0.284818,-0.765792,-0.576578,0.086093,0.596160,0.066644,-13.563168,-26.599184,19.380848,,,,,,
1480499941.19,0.439822,0.876658,2.922994,-0.026687,-0.791302,0.903074,0.272380,-0.768605,-0.578839,0.023839,0.662877,0.213681,-13.638880,-26.439222,19.545891,,,,,,
1480499941.21,0.422184,0.878778,2.937151,-0.223273,-0.563196,0.830572,0.261461,-0.769960,-0.582066,0.034758,0.664231,0.216908,-13.638880,-26.439222,19.545891,,,,,,
1480499941.22,0.408284,0.878294,2.951196,-0.432207,-0.191842,0.717080,0.253493,-0.769651,-0.585986,-0.053801,0.729276,0.394198,-13.829663,-26.213949,19.714531,,,,,,
1480499941.23,0.398436,0.875203,2.964263,-0.613552,0.069851,0.563921,0.248632,-0.767673,-0.590643,-0.140325,0.764362,0.558905,-13.829663,-26.213949,19.714531,,,,,,
1480499941.24,0.390990,0.870076,2.975473,-0.726544,0.101698,0.397200,0.245724,-0.764378,-0.596109,-0.252255,0.794804,0.724817,-14.152105,-26.211281,19.487946,,,,,,
1480499941.25,0.384409,0.863773,2.984786,-0.758110,0.029437,0.267971,0.243598,-0.760299,-0.602168,-0.375647,0.846465,0.843241,-14.152105,-26.211281,19.487946,,,,,,
1480499941.26,0.379270,0.857818,2.991545,-0.625112,-0.006032,0.142735,0.242172,-0.756417,-0.607606,-0.457061,0.872720,0.905855,-14.391267,-26.399771,19.053528,,,,,,
1480499941.27,0.376754,0.853890,2.994727,-0.332359,-0.014340,0.015668,0.241734,-0.753842,-0.610972,-0.482594,0.877438,0.862361,-14.391267,-26.399771,19.053528,,,,,,
1480499941.28,0.376279,0.852961,2.994563,0.006378,-0.075793,-0.056214,0.241700,-0.753231,-0.611738,-0.450349,0.882534,0.747068,-14.451324,-26.584780,18.748390,,,,,,
1480499941.29,0.375895,0.853604,2.992809,0.090985,-0.189491,-0.085614,0.241287,-0.753654,-0.611380,-0.396073,0.850593,0.642737,-14.451324,-26.584780,18.748390,,,,,,
1480499941.30,0.373078,0.851583,2.992012,-0.278785,-0.376003,-0.128991,0.240119,-0.752324,-0.613475,-0.312263,0.783498,0.552363,-14.374091,-26.599483,18.786867,,,,,,
1480499941.31,0.365968,0.842195,2.993664,-1.085357,-0.596919,-0.256318,0.238268,-0.746106,-0.621734,-0.237444,0.721525,0.471496,-14.374091,-26.599483,18.786867,,,,,,
1480499941.32,0.356370,0.821459,2.998761,-2.223987,-0.474300,-0.428673,0.237637,-0.732141,-0.638356,-0.050153,0.334023,0.468556,-14.103943,-26.853634,18.629400,,,,,,
1480499941.33,0.352521,0.788243,3.006508,-3.350697,0.438568,-0.668804,0.243444,-0.709115,-0.661733,-0.135015,0.052667,0.599218,-14.103943,-26.853634,18.629400,,,,,,
1480499941.34,0.362192,0.745787,3.014440,-4.052028,1.751352,-0.960620,0.260271,-0.678550,-0.686898,-0.151842,0.022102,0.624383,-14.103943,-26.853634,18.629400,,,,,,
1480499941.36,0.386381,0.699154,3.021481,-4.250934,2.991805,-1.164300,0.288427,-0.643570,-0.708962,-0.370809,-0.373794,0.720299,-13.717739,-28.784523,15.823032,,,,,,
1480499941.37,0.418622,0.657416,3.028473,-3.545500,3.460114,-0.985031,0.321776,-0.611074,-0.723221,-0.522322,-0.822093,0.674973,-13.717739,-28.784523,15.823032,,,,,,
1480499941.38,0.445806,0.630344,3.033145,-2.051453,2.480323,-0.678262,0.348322,-0.589423,-0.728871,-0.457621,-1.198068,0.341160,-13.939877,-30.324152,12.378173,,,,,,
1480499941.39,0.454294,0.621016,3.033009,-0.348929,0.049688,-0.291066,0.356893,-0.581861,-0.730797,-0.115530,-1.589006,-0.397468,-13.939877,-30.324152,12.378173,,,,,,
1480499941.40,0.434534,0.626121,3.025388,0.953457,-2.963960,-0.375342,0.341129,-0.586006,-0.735002,0.371472,-1.954994,-1.398390,-14.014284,-30.893152,10.784547,,,,,,
1480499941.41,0.394757,0.637421,3.010983,1.501620,-4.927171,-0.623546,0.309065,-0.595125,-0.741826,1.095446,-2.181440,-2.605205,-14.014284,-30.893152,10.784547,,,,,,
1480499941.42,0.346302,0.650330,2.994521,1.568382,-5.509773,-0.727527,0.270140,-0.605449,-0.748636,1.940858,-2.211858,-3.877722,-12.879633,-30.761555,12.447294,,,,,,
1480499941.43,0.302009,0.663025,2.978317,1.484494,-4.829515,-0.769211,0.234422,-0.615504,-0.752464,2.392486,-1.893072,-4.541939,-12.879633,-30.761555,12.447294,,,,,,
1480499941.44,0.272209,0.675119,2.962512,1.386058,-3.272004,-0.798091,0.209880,-0.624990,-0.751889,2.099598,-1.763224,-4.507754,-10.863564,-30.498821,14.795214,,,,,,
1480499941.46,0.268424,0.696333,2.936408,1.091309,0.319106,-0.471699,0.203471,-0.641408,-0.739726,0.497183,-1.185847,-1.410695,-10.002640,-30.356956,15.668303,,,,,,
1480499941.45,0.261885,0.686227,2.947816,1.245531,-1.345557,-0.726753,0.200297,-0.633623,-0.747264,0.500356,-1.193632,-1.403157,-10.002640,-30.356956,15.668303,,,,,,
1480499941.47,0.285219,0.706126,2.929888,0.981985,1.408277,-0.102839,0.214088,-0.648891,-0.730141,0.218301,-1.091831,-0.563148,-9.257209,-30.072430,16.644711,,,,,,
1480499941.48,0.305546,0.715808,2.928613,0.854155,1.918627,0.259679,0.226983,-0.656227,-0.719614,0.047248,-0.950386,0.042200,-9.257209,-30.072430,16.644711,,,,,,
1480499941.49,0.324271,0.724214,2.931941,0.605975,1.936016,0.524946,0.238651,-0.662547,-0.709984,0.005123,-0.821309,0.394340,-9.790545,-29.732117,16.948153,,,,,,
1480499941.51,0.338497,0.730525,2.938867,0.331914,1.682801,0.681145,0.247333,-0.667260,-0.702559,0.075481,-0.698859,0.498488,-9.790545,-29.732117,16.948153,,,,,,
1480499941.52,0.347438,0.734864,2.948121,0.120475,1.325117,0.757818,0.252617,-0.670486,-0.697591,0.129234,-0.548218,0.443379,-10.816208,-29.413958,16.879637,,,,,,
1480499941.53,0.351615,0.738262,2.957984,0.059567,0.892771,0.738239,0.254743,-0.673004,-0.694386,0.125033,-0.345856,0.365864,-10.816208,-29.413958,16.879637,,,,,,
1480499941.54,0.350628,0.741841,2.966973,0.124403,0.330519,0.686664,0.253228,-0.675646,-0.692371,0.053108,-0.084257,0.338581,-11.719103,-29.192366,16.660187,,,,,,
1480499941.55,0.343733,0.746652,2.975360,0.265811,-0.255781,0.702804,0.247350,-0.679186,-0.691032,-0.018666,0.201433,0.359657,-11.719103,-29.192366,16.660187,,,,,,
1480499941.56,0.332242,0.752922,2.983239,0.406693,-0.658021,0.694117,0.237999,-0.683774,-0.689790,-0.077019,0.432843,0.372529,-12.216682,-28.955257,16.716429,,,,,,
1480499941.57,0.319268,0.759600,2.989078,0.475219,-0.886830,0.520285,0.227592,-0.688632,-0.688468,-0.102271,0.615603,0.352027,-12.330891,-28.795677,16.907145,,,,,,
1480499941.58,0.307685,0.765086,2.991310,0.418831,-0.936865,0.225999,0.218455,-0.692599,-0.687448,-0.128855,0.803347,0.314538,-12.330891,-28.795677,16.907145,,,,,,
1480499941.59,0.300408,0.768166,2.990093,0.252236,-0.666750,-0.061341,0.212814,-0.694817,-0.686978,-0.350494,1.016854,0.583356,-12.273641,-28.513655,17.419033,,,,,,
1480499941.61,0.305500,0.766062,2.984355,-0.229235,0.503171,-0.211294,0.216749,-0.693303,-0.687278,-0.489073,1.075963,0.750770,-12.133850,-28.456539,17.609325,,,,,,
1480499941.60,0.299881,0.768442,2.986848,0.033089,-0.106711,-0.231912,0.212395,-0.695016,-0.686907,-0.484719,1.077676,0.750399,-12.133850,-28.456539,17.609325,,,,,,
1480499941.62,0.313215,0.761127,2.984317,-0.508144,0.751899,-0.119406,0.223096,-0.689738,-0.688832,-0.610059,1.083018,0.935277,-12.133850,-28.456539,17.609325,,,,,,
1480499941.63,0.318872,0.754417,2.986626,-0.672694,0.630335,-0.021968,0.228435,-0.684864,-0.691938,-0.635143,0.994602,1.081724,-12.113708,-28.625759,17.346970,,,,,,
1480499941.64,0.320594,0.748296,2.989975,-0.569019,0.274319,0.051688,0.230943,-0.680391,-0.695510,-0.560365,0.869874,1.123580,-12.113708,-28.625759,17.346970,,,,,,
1480499941.65,0.318223,0.745470,2.992250,-0.190720,-0.191778,0.067785,0.229894,-0.678317,-0.697879,-0.415288,0.744327,1.024768,-12.303656,-28.857023,16.822176,,,,,,
1480499941.67,0.313187,0.747644,2.991970,0.327394,-0.578426,0.029019,0.225922,-0.679913,-0.697623,-0.299454,0.658657,0.840995,-12.303656,-28.857023,16.822176,,,,,,
1480499941.68,0.307579,0.754096,2.988468,0.739812,-0.780011,-0.067072,0.220673,-0.684630,-0.694684,-0.235337,0.655089,0.611004,-12.236000,-28.860573,16.865381,,,,,,
1480499941.70,0.300646,0.774695,2.977140,1.137144,-0.595563,-0.051440,0.211630,-0.699498,-0.682580,-0.187582,0.685765,0.188195,-12.086469,-28.748426,17.162128,,,,,,
1480499941.69,0.303299,0.763488,2.983013,1.009885,-0.726346,-0.090588,0.215768,-0.691445,-0.689455,-0.191720,0.677712,0.195070,-12.086469,-28.748426,17.162128,,,,,,
1480499941.71,0.298469,0.785443,2.972552,0.994994,-0.476582,0.025088,0.207921,-0.707138,-0.675814,-0.190556,0.731140,0.107470,-11.780284,-28.379635,17.969820,,,,,,
1480499941.72,0.295473,0.792626,2.970557,0.556952,-0.397299,0.082164,0.204410,-0.712199,-0.671557,-0.232670,0.833598,0.369799,-11.780284,-28.379635,17.969820,,,,,,
1480499941.73,0.291013,0.793973,2.971383,-0.052728,-0.346582,0.083795,0.201138,-0.713144,-0.671542,-0.214367,0.834360,0.571490,-11.623486,-28.031660,18.606827,,,,,,
1480499941.74,0.286307,0.789060,2.974210,-0.625617,-0.212961,0.032700,0.198962,-0.709692,-0.675834,-0.200565,0.834783,0.759727,-11.623486,-28.031660,18.606827,,,,,,
1480499941.75,0.282755,0.779729,2.977389,-0.964563,-0.102675,-0.070582,0.198400,-0.703087,-0.682866,-0.211415,0.822853,0.970510,-11.541772,-28.092178,18.566378,,,,,,
1480499941.76,0.280666,0.768580,2.979501,-1.044900,-0.036882,-0.184186,0.199132,-0.695115,-0.690769,-0.247319,0.810929,1.158695,-11.541772,-28.092178,18.566378,,,,,,
1480499941.77,0.281293,0.757909,2.979805,-0.921777,0.125991,-0.276920,0.201612,-0.687404,-0.697731,-0.286833,0.812816,1.275001,-11.446815,-28.495268,18.002317,,,,,,
1480499941.78,0.285285,0.749229,2.978373,-0.691503,0.329733,-0.331676,0.206068,-0.681075,-0.702619,-0.322431,0.791380,1.276945,-11.446815,-28.495268,18.002317,,,,,,
1480499941.79,0.291563,0.742825,2.975897,-0.478190,0.448439,-0.329087,0.211724,-0.676371,-0.705475,-0.304147,0.763407,1.135742,-11.337303,-28.890938,17.431946,,,,,,
1480499941.80,0.297652,0.737185,2.973095,-0.460970,0.361379,-0.346191,0.217131,-0.672206,-0.707808,-0.208541,0.694545,0.736571,-11.313719,-29.028723,17.217041,,,,,,
1480499941.82,0.301959,0.729701,2.970237,-0.671694,0.173304,-0.416178,0.221668,-0.666647,-0.711650,-0.213077,0.688986,0.740412,-11.313719,-29.028723,17.217041,,,,,,
1480499941.83,0.303718,0.718946,2.968092,-1.004386,-0.007939,-0.450401,0.225050,-0.658592,-0.718059,-0.123824,0.610328,0.573604,-11.196981,-29.309732,16.812515,,,,,,
1480499941.84,0.305034,0.703841,2.965381,-1.382761,-0.035775,-0.695237,0.228957,-0.647150,-0.727169,-0.030166,0.520091,0.422543,-11.196981,-29.309732,16.812515,,,,,,
1480499941.85,0.312580,0.682477,2.957288,-1.861450,0.362648,-1.335287,0.238635,-0.630718,-0.738410,0.034589,0.422023,0.301383,-10.863277,-29.821846,16.116449,,,,,,
1480499941.86,0.332607,0.653079,2.944383,-2.446145,1.422059,-1.880042,0.259318,-0.607634,-0.750689,-0.129832,-0.211579,0.064715,-10.527695,-30.246910,15.536587,,,,,,
1480499941.88,0.403989,0.580570,2.919597,-2.879056,3.240406,-2.139547,0.328682,-0.548501,-0.768840,-0.500648,-0.645011,-0.095845,-10.527695,-30.246910,15.536587,,,,,,
1480499941.87,0.364356,0.617915,2.931380,-2.836763,2.496268,-2.085971,0.290455,-0.579337,-0.761580,-0.462422,-0.614175,-0.103105,-10.527695,-30.246910,15.536587,,,,,,
1480499941.89,0.443040,0.548273,2.912017,-2.328686,3.200204,-1.622893,0.365853,-0.521214,-0.771030,-0.700707,-1.074428,-0.313656,-9.482366,-32.067699,12.200031,,,,,,
1480499941.90,0.470882,0.527814,2.908622,-1.335502,2.093619,-0.920031,0.391932,-0.503646,-0.769889,-0.413508,-1.502793,-0.676140,-9.482366,-32.067699,12.200031,,,,,,
1480499941.91,0.479078,0.521376,2.906025,-0.123497,0.106349,-0.317983,0.399715,-0.498073,-0.769513,0.135487,-1.935978,-1.378207,-9.166773,-32.846558,10.206238,,,,,,
1480499941.92,0.466470,0.528424,2.901801,1.002776,-1.808125,0.071168,0.388394,-0.504173,-0.771336,0.820591,-2.222939,-2.258861,-9.073787,-32.939083,9.988832,,,,,,
1480499941.93,0.442214,0.544236,2.894232,1.763026,-2.828756,0.079226,0.366114,-0.517764,-0.773227,1.728124,-2.342160,-3.211590,-9.073787,-32.939083,9.988832,,,,,,
1480499941.94,0.416578,0.564058,2.882125,2.158848,-2.973333,-0.172833,0.341953,-0.534620,-0.772820,2.396008,-2.269701,-3.962517,-8.654804,-32.664944,11.188792,,,,,,
1480499941.95,0.398114,0.584207,2.867283,2.176347,-2.257247,-0.359404,0.323384,-0.551538,-0.768914,2.514843,-1.876898,-4.196280,-8.654804,-32.664944,11.188792,,,,,,
1480499941.96,0.390777,0.602729,2.853275,1.944160,-1.126950,-0.313945,0.313788,-0.566893,-0.761689,2.108179,-1.503466,-3.895232,-7.796833,-32.144310,13.154696,,,,,,
1480499941.98,0.392615,0.618391,2.843223,1.538289,-0.146939,-0.085721,0.311752,-0.579725,-0.752815,1.448380,-1.161196,-3.064507,-7.796833,-32.144310,13.154696,,,,,,
1480499941.99,0.397634,0.630878,2.838999,1.090093,0.313810,0.231379,0.312699,-0.589854,-0.744508,0.770935,-0.811254,-2.055068,-7.367926,-31.640415,14.549609,,,,,,
1480499942.00,0.400068,0.640390,2.840255,0.687569,0.267044,0.492872,0.312310,-0.597508,-0.738544,0.059424,-0.235790,0.323398,-7.457385,-31.438869,14.935801,,,,,,
1480499942.02,0.392593,0.654125,2.853217,0.321480,-0.097175,0.809082,0.303612,-0.608465,-0.733205,0.106971,-0.098978,0.596120,-7.457385,-31.438869,14.935801,,,,,,
1480499942.01,0.398027,0.647653,2.845424,0.418124,0.040193,0.655900,0.309112,-0.603317,-0.735159,0.101472,-0.104127,0.598074,-7.457385,-31.438869,14.935801,,,,,,
1480499942.03,0.384849,0.661312,2.863051,0.361925,-0.178981,0.963911,0.296276,-0.614152,-0.731462,0.119297,0.033296,0.677889,-8.117854,-31.028009,15.442035,,,,,,
1480499942.04,0.375891,0.669538,2.873936,0.437316,-0.218572,1.043776,0.287847,-0.620624,-0.729363,0.064860,0.212680,0.697640,-8.398290,-30.888662,15.570891,,,,,,
1480499942.05,0.366095,0.678337,2.884821,0.490559,-0.308755,1.025168,0.278723,-0.627499,-0.727020,-0.034384,0.406995,0.712112,-8.398290,-30.888662,15.570891,,,,,,
1480499942.06,0.356090,0.686693,2.893987,0.493371,-0.416492,0.839811,0.269598,-0.633983,-0.724833,-0.096838,0.574092,0.728861,-8.995352,-30.545462,15.910746,,,,,,
1480499942.07,0.348393,0.693804,2.899568,0.484380,-0.357156,0.523489,0.262465,-0.639466,-0.722630,-0.152739,0.690843,0.723775,-8.995352,-30.545462,15.910746,,,,,,
1480499942.08,0.345270,0.699959,2.901341,0.502796,-0.118107,0.255075,0.258870,-0.644187,-0.719729,-0.249013,0.803046,0.739520,-9.349895,-30.228647,16.306492,,,,,,
1480499942.09,0.346893,0.705124,2.900478,0.451774,0.171523,0.060890,0.258903,-0.648128,-0.716170,-0.356178,0.897624,0.768202,-9.349895,-30.228647,16.306492,,,,,,
1480499942.10,0.351798,0.707721,2.898781,0.194565,0.415546,-0.049488,0.261832,-0.650104,-0.713309,-0.498328,0.980609,0.829001,-9.470729,-30.014847,16.628517,,,,,,
1480499942.11,0.356954,0.707257,2.898817,-0.120484,0.476096,0.010220,0.265612,-0.649751,-0.712232,-0.646441,1.034288,0.917294,-9.470729,-30.014847,16.628517,,,,,,
1480499942.13,0.358356,0.704523,2.901512,-0.356793,0.214948,0.115922,0.267232,-0.647671,-0.713519,-0.733800,0.941036,0.994266,-9.606537,-29.978617,16.615965,,,,,,
1480499942.14,0.354361,0.701054,2.906537,-0.440836,-0.162544,0.259779,0.265158,-0.645023,-0.716684,-0.654440,0.848530,0.993112,-9.606537,-29.978617,16.615965,,,,,,
1480499942.15,0.345870,0.698256,2.912943,-0.378766,-0.479620,0.360890,0.259674,-0.642883,-0.720605,-0.528198,0.759002,0.967843,-9.746957,-30.075787,16.356569,,,,,,
1480499942.16,0.335074,0.696930,2.918992,-0.217649,-0.692719,0.358213,0.252159,-0.641867,-0.724170,-0.373009,0.703482,0.822330,-9.785389,-30.110497,16.269527,,,,,,
1480499942.17,0.324065,0.697335,2.922882,0.004396,-0.823860,0.240403,0.244089,-0.642177,-0.726656,-0.256418,0.665798,0.652682,-9.785389,-30.110497,16.269527,,,,,,
1480499942.18,0.314687,0.699463,2.923519,0.228135,-0.830721,0.060158,0.236840,-0.643807,-0.727612,-0.166726,0.645104,0.530057,-9.741559,-30.098198,16.318514,,,,,,
1480499942.19,0.308395,0.703082,2.920700,0.433520,-0.732639,-0.136662,0.231548,-0.646572,-0.726863,-0.141155,0.643551,0.460887,-9.741559,-30.098198,16.318514,,,,,,
1480499942.20,0.305186,0.707716,2.915248,0.552255,-0.592571,-0.266166,0.228312,-0.650100,-0.724737,-0.172938,0.671432,0.434500,-9.466006,-29.997623,16.662254,,,,,,
1480499942.21,0.304411,0.712455,2.908609,0.559790,-0.438325,-0.324216,0.226824,-0.653694,-0.721966,-0.230624,0.719108,0.460919,-9.466006,-29.997623,16.662254,,,,,,
1480499942.22,0.305039,0.716825,2.902380,0.504335,-0.281200,-0.277652,0.226418,-0.656994,-0.719092,-0.277581,0.750317,0.534171,-9.088406,-29.854889,17.122498,,,,,,
1480499942.23,0.306573,0.720928,2.898415,0.430565,-0.032129,-0.096828,0.226705,-0.660082,-0.716168,-0.300955,0.754961,0.636166,-9.088406,-29.854889,17.122498,,,,,,
1480499942.24,0.309022,0.724391,2.897999,0.261544,0.277910,0.118886,0.227762,-0.662679,-0.713429,-0.291925,0.757086,0.754597,-8.867537,-29.718060,17.472755,,,,,,
1480499942.25,0.312488,0.724580,2.900732,-0.166574,0.571319,0.194939,0.230194,-0.662821,-0.712516,-0.259613,0.725169,0.886557,-8.927917,-29.651918,17.554186,,,,,,
1480499942.26,0.318531,0.719576,2.905320,-0.658882,0.943858,0.139143,0.235532,-0.659066,-0.714253,-0.054623,0.648599,1.166782,-9.079886,-29.641653,17.493467,,,,,,
1480499942.29,0.337485,0.700691,2.913421,-0.987167,1.100762,-0.103504,0.253103,-0.644746,-0.721278,-0.049948,0.634141,1.214900,-9.079886,-29.641653,17.493467,,,,,,
1480499942.28,0.327602,0.710889,2.909875,-0.924425,1.165049,0.017147,0.243834,-0.652508,-0.717481,-0.040679,0.641903,1.211102,-9.079886,-29.641653,17.493467,,,,,,
1480499942.30,0.344700,0.691179,2.915367,-0.831589,0.659193,-0.182441,0.260361,-0.637446,-0.725172,-0.088151,0.663737,1.257643,-9.688308,-30.063717,16.413504,,,,,,
1480499942.31,0.345909,0.684170,2.915650,-0.554377,-0.061675,-0.207908,0.262747,-0.632030,-0.729042,-0.127142,0.684596,1.170617,-9.688308,-30.063717,16.413504,,,,,,
1480499942.32,0.341079,0.678958,2.914260,-0.399530,-0.665828,-0.286169,0.260320,-0.627982,-0.733397,-0.110525,0.677695,0.842452,-9.728634,-30.362000,15.830226,,,,,,
1480499942.33,0.333725,0.672525,2.910655,-0.537171,-0.942775,-0.514892,0.256238,-0.622963,-0.739094,-0.021298,0.660072,0.466511,-9.728634,-30.362000,15.830226,,,,,,
1480499942.34,0.329517,0.660694,2.904613,-1.054855,-0.613899,-0.872519,0.255493,-0.613665,-0.747087,0.060562,0.605441,0.094377,-9.257229,-30.586218,15.680574,,,,,,
1480499942.35,0.334955,0.639942,2.897700,-1.893046,0.413781,-1.192055,0.263682,-0.597149,-0.757552,0.083318,0.447643,-0.185517,-9.257229,-30.586218,15.680574,,,,,,
1480499942.36,0.352750,0.607615,2.892360,-2.998541,1.687902,-1.466429,0.283643,-0.570911,-0.770459,-0.032544,0.152179,-0.302096,-8.525423,-31.186565,14.893243,,,,,,
1480499942.37,0.380813,0.564484,2.891109,-3.929595,2.828212,-1.524463,0.314015,-0.534980,-0.784341,-0.272023,-0.202554,-0.278235,-8.525423,-31.186565,14.893243,,,,,,
1480499942.38,0.414380,0.519908,2.896623,-3.935334,3.539885,-1.045821,0.349422,-0.496800,-0.794414,-0.472347,-0.581020,-0.193715,-8.096733,-32.386375,12.355526,,,,,,
1480499942.39,0.445548,0.489064,2.906982,-2.549619,3.207125,-0.224013,0.380433,-0.469800,-0.796592,-0.420869,-0.955249,-0.187219,-8.093836,-32.984982,10.657118,,,,,,
1480499942.40,0.462340,0.479914,2.914519,-0.549096,1.351843,0.272151,0.395656,-0.461703,-0.793906,0.260838,-1.781415,-0.937616,-8.301928,-33.340454,9.305142,,,,,,
1480499942.42,0.453798,0.491479,2.910061,1.369283,-2.102241,0.088998,0.386493,-0.471931,-0.792404,1.758572,-2.225487,-3.177139,-8.301928,-33.340454,9.305142,,,,,,
1480499942.43,0.426078,0.508494,2.898868,1.954832,-3.338229,-0.224108,0.361011,-0.486862,-0.795384,2.353009,-1.837021,-5.115627,-8.508451,-33.301834,9.256750,,,,,,
1480499942.44,0.395216,0.528324,2.884069,2.230495,-3.566755,-0.393933,0.332513,-0.504087,-0.797077,1.771796,-1.550250,-4.626095,-8.508451,-33.301834,9.256750,,,,,,
1480499942.45,0.369249,0.549044,2.868871,2.237655,-2.964180,-0.396126,0.307869,-0.521872,-0.795529,1.049247,-1.375696,-3.487842,-7.595094,-32.905704,11.252670,,,,,,
1480499942.46,0.351974,0.569214,2.857254,2.023979,-1.914683,-0.102358,0.290393,-0.538970,-0.790685,1.066724,-1.358597,-3.492686,-7.595094,-32.905704,11.252670,,,,,,
1480499942.47,0.342234,0.587575,2.853000,1.615109,-0.877062,0.393124,0.279310,-0.554344,-0.784021,0.585085,-1.216331,-2.343817,-6.687441,-32.383953,13.177679,,,,,,
1480499942.48,0.337017,0.602507,2.856625,1.092116,-0.137431,0.830920,0.272448,-0.566709,-0.777568,0.338026,-1.102663,-1.328068,-6.687441,-32.383953,13.177679,,,,,,
1480499942.49,0.333180,0.613820,2.866188,0.657930,0.217055,1.096484,0.267348,-0.575995,-0.772499,0.202531,-0.973764,-0.505150,-6.822658,-31.878416,14.293751,,,,,,
1480499942.51,0.328319,0.622891,2.878923,0.458304,0.224165,1.215503,0.261894,-0.583385,-0.768813,0.203590,-0.863636,0.078475,-6.822658,-31.878416,14.293751,,,,,,
1480499942.52,0.322364,0.632267,2.891761,0.558993,0.117843,1.182279,0.255567,-0.590975,-0.765136,0.093310,-0.436704,0.640152,-7.639983,-31.512743,14.685745,,,,,,
1480499942.53,0.316217,0.643560,2.902241,0.829815,-0.027043,1.036655,0.248767,-0.600047,-0.760301,-0.040073,-0.052937,0.663500,-7.639983,-31.512743,14.685745,,,,,,
1480499942.54,0.310566,0.656866,2.909211,1.078897,-0.167499,0.819431,0.242006,-0.610638,-0.754025,-0.167131,0.344906,0.588727,-8.428584,-31.113573,15.099598,,,,,,
1480499942.55,0.305798,0.670981,2.912355,1.214193,-0.297520,0.550550,0.235789,-0.621755,-0.746876,-0.270503,0.672170,0.494740,-8.428584,-31.113573,15.099598,,,,,,
1480499942.56,0.302848,0.684748,2.911604,1.245432,-0.310557,0.262181,0.231010,-0.632478,-0.739328,-0.349693,0.961366,0.462000,-8.857206,-30.608875,15.866316,,,,,,
1480499942.57,0.303745,0.697722,2.907214,1.258125,-0.119394,-0.002041,0.229200,-0.642474,-0.731229,-0.406965,1.176882,0.532040,-8.910929,-30.363110,16.302464,,,,,,
1480499942.58,0.309370,0.709937,2.900023,1.226902,0.162139,-0.180775,0.230902,-0.651786,-0.722398,-0.474844,1.285957,0.678636,-8.910929,-30.363110,16.302464,,,,,,
1480499942.59,0.318011,0.719721,2.892877,0.931183,0.439242,-0.185922,0.235131,-0.659175,-0.714284,-0.552468,1.325389,0.865728,-8.869275,-29.924841,17.115290,,,,,,
1480499942.60,0.326525,0.724543,2.889415,0.343828,0.611116,-0.051948,0.240181,-0.662794,-0.709238,-0.595054,1.297269,1.037546,-8.869275,-29.924841,17.115290,,,,,,
1480499942.61,0.331761,0.722593,2.890380,-0.375136,0.503891,0.014722,0.244312,-0.661332,-0.709191,-0.592578,1.204362,1.148339,-8.955359,-29.668337,17.512413,,,,,,
1480499942.62,0.332451,0.714660,2.894556,-0.912429,0.262694,0.042930,0.246506,-0.655360,-0.713959,-0.531097,1.084148,1.223801,-8.955359,-29.668337,17.512413,,,,,,
1480499942.63,0.329629,0.703918,2.900428,-1.114968,0.037769,0.073746,0.246754,-0.647210,-0.721271,-0.445042,0.961358,1.299366,-9.130306,-29.847744,17.112658,,,,,,
1480499942.64,0.325039,0.693622,2.905911,-0.987572,-0.137532,0.050625,0.245556,-0.639327,-0.728672,-0.386151,0.859175,1.317128,-9.130306,-29.847744,17.112658,,,,,,
1480499942.65,0.321566,0.686260,2.908281,-0.596084,-0.192410,-0.101962,0.244505,-0.633648,-0.733967,-0.314482,0.796642,1.045597,-9.171332,-30.215757,16.431311,,,,,,
1480499942.68,0.320877,0.683049,2.899379,0.239825,-0.394844,-0.527366,0.244639,-0.631161,-0.736062,-0.234309,0.778134,0.578469,-9.120889,-30.344757,16.220314,,,,,,
1480499942.67,0.320427,0.682995,2.906173,-0.127276,-0.254695,-0.291077,0.244319,-0.631119,-0.736205,-0.233989,0.778092,0.578612,-9.120889,-30.344757,16.220314,,,,,,
1480499942.69,0.322927,0.684783,2.888954,0.430147,-0.415277,-0.699961,0.245800,-0.632505,-0.734520,-0.262280,0.806074,0.332558,-8.788700,-30.426527,16.250496,,,,,,
1480499942.70,0.326435,0.687317,2.877346,0.502664,-0.341436,-0.713457,0.247861,-0.634466,-0.732133,-0.264340,0.808034,0.330170,-8.788700,-30.426527,16.250496,,,,,,
1480499942.71,0.330064,0.689704,2.867074,0.414973,-0.248007,-0.591708,0.250025,-0.636309,-0.729794,-0.278254,0.801699,0.346416,-8.200307,-30.396769,16.609776,,,,,,
1480499942.72,0.332224,0.690516,2.860323,0.156854,-0.186568,-0.378276,0.251432,-0.636935,-0.728763,-0.283933,0.774920,0.474949,-8.200307,-30.396769,16.609776,,,,,,
1480499942.73,0.331945,0.688592,2.858411,-0.226960,-0.120733,-0.125429,0.251628,-0.635451,-0.729990,-0.243159,0.687987,0.662852,-7.769678,-30.365982,16.871056,,,,,,
1480499942.74,0.329952,0.683652,2.860926,-0.575974,-0.001923,0.055919,0.251186,-0.631629,-0.733451,-0.147716,0.574759,0.814140,-7.769678,-30.365982,16.871056,,,,,,
1480499942.75,0.328450,0.676769,2.865154,-0.736603,0.146653,0.082055,0.251480,-0.626278,-0.737925,-0.078293,0.494884,0.948664,-7.683534,-30.491259,16.683516,,,,,,
1480499942.76,0.329121,0.669438,2.869176,-0.733567,0.354657,0.046155,0.253453,-0.620546,-0.742081,-0.040425,0.432191,1.067658,-7.683534,-30.491259,16.683516,,,,,,
1480499942.77,0.332961,0.663007,2.872451,-0.612091,0.604853,0.032563,0.257599,-0.615490,-0.744859,-0.028946,0.408474,1.129060,-7.800257,-30.734907,16.174515,,,,,,
1480499942.78,0.338579,0.657973,2.875039,-0.478762,0.675892,0.019717,0.262806,-0.611515,-0.746313,-0.080631,0.427219,1.114508,-7.800257,-30.734907,16.174515,,,,,,
1480499942.79,0.344169,0.653589,2.876783,-0.415508,0.602543,-0.029077,0.267876,-0.608040,-0.747349,-0.161461,0.527458,0.632511,-8.027197,-30.926805,15.690447,,,,,,
1480499942.80,0.349401,0.650388,2.877587,-0.244439,0.507910,-0.039187,0.272447,-0.605496,-0.747762,-0.166032,0.524914,0.632924,-8.027197,-30.926805,15.690447,,,,,,
1480499942.82,0.353028,0.650928,2.877900,0.142672,0.295450,0.073181,0.275044,-0.605925,-0.746462,-0.129597,0.516570,0.447893,-8.027197,-30.926805,15.690447,,,,,,
1480499942.83,0.354224,0.655651,2.878069,0.486413,0.072873,0.192056,0.274941,-0.609675,-0.743440,-0.106835,0.513957,0.288789,-8.270488,-31.043600,15.329296,,,,,,
1480499942.84,0.354694,0.662219,2.878832,0.550822,0.119224,0.286587,0.273894,-0.614868,-0.739540,-0.070357,0.494232,0.123375,-8.270488,-31.043600,15.329296,,,,,,
1480499942.85,0.357469,0.667014,2.880258,0.307257,0.438781,0.224248,0.274910,-0.618643,-0.736006,0.005775,0.409750,-0.110658,-8.447569,-30.845123,15.630431,,,,,,
1480499942.86,0.366375,0.668622,2.881309,0.069586,1.065567,0.099699,0.281097,-0.619905,-0.732599,0.042420,0.240968,-0.302679,-8.447569,-30.845123,15.630431,,,,,,
1480499942.87,0.383059,0.669272,2.880823,0.082174,1.648915,-0.070952,0.293130,-0.620415,-0.727434,-0.004250,-0.012626,-0.361327,-8.780058,-30.726919,15.679935,,,,,,
1480499942.88,0.403796,0.667735,2.875995,-0.053846,1.609681,-0.491374,0.308524,-0.619209,-0.722075,-0.109489,-0.401817,-0.359819,-8.780058,-30.726919,15.679935,,,,,,
1480499942.89,0.421285,0.662229,2.869556,-0.346180,1.121619,-0.645645,0.322494,-0.614876,-0.719670,-0.192596,-0.831184,-0.423900,-9.181336,-30.753052,15.396306,,,,,,
1480499942.90,0.430412,0.656566,2.866026,-0.350600,0.499033,-0.369378,0.330497,-0.610400,-0.719850,-0.090720,-1.311475,-0.758208,-9.181336,-30.753052,15.396306,,,,,,
1480499942.91,0.431581,0.655572,2.865508,0.063758,-0.055875,0.024113,0.331592,-0.609613,-0.720013,-0.001590,-1.834936,-1.380069,-9.131126,-30.967077,14.991863,,,,,,
1480499942.92,0.427351,0.662868,2.864623,0.871083,-0.581952,0.276003,0.326691,-0.615380,-0.717342,0.402618,-2.557349,-2.507374,-9.119503,-30.985216,14.961432,,,,,,
1480499942.93,0.419556,0.679610,2.859652,1.798967,-1.168867,0.297824,0.316848,-0.628490,-0.710358,1.031800,-2.598851,-2.970703,-9.121768,-30.858810,15.219085,,,,,,
1480499942.94,0.409866,0.702860,2.847581,2.501841,-1.779343,-0.017590,0.304044,-0.646402,-0.699801,1.341388,-2.064261,-3.320081,-9.121768,-30.858810,15.219085,,,,,,
1480499942.95,0.400667,0.729106,2.826293,2.934994,-2.277561,-0.550582,0.290875,-0.666203,-0.686706,1.354557,-2.044460,-3.333176,-9.121768,-30.858810,15.219085,,,,,,
1480499942.97,0.395074,0.755295,2.796804,3.054492,-2.379308,-1.030122,0.280217,-0.685503,-0.671985,0.695277,-1.306623,-2.595807,-8.264656,-29.661879,17.859501,,,,,,
1480499942.98,0.394650,0.779742,2.765056,2.863096,-1.975370,-1.062831,0.273406,-0.703096,-0.656434,0.702089,-1.289030,-2.611358,-8.264656,-29.661879,17.859501,,,,,,
1480499942.99,0.396446,0.801316,2.740379,2.334024,-1.287171,-0.576551,0.268663,-0.718273,-0.641798,0.300413,-0.932942,-1.871737,-6.726358,-28.609428,20.083576,,,,,,
1480499943.00,0.396596,0.818756,2.729393,1.582489,-0.550171,0.174393,0.263880,-0.730297,-0.630106,0.049322,-0.657246,-1.070043,-6.726358,-28.609428,20.083576,,,,,,
1480499943.01,0.391835,0.831520,2.734291,0.785627,0.018887,0.925302,0.257296,-0.738956,-0.622690,0.079465,-0.469662,-0.301505,-6.012055,-27.711527,21.517895,,,,,,
1480499943.02,0.380810,0.839263,2.752927,0.051719,0.321982,1.476547,0.248282,-0.744151,-0.620158,0.357248,-0.395284,0.307826,-6.012055,-27.711527,21.517895,,,,,,
1480499943.03,0.365400,0.842414,2.780329,-0.444079,0.519081,1.746894,0.237857,-0.746252,-0.621717,0.579068,-0.374704,0.730390,-6.664374,-27.288099,21.864107,,,,,,
1480499943.04,0.350738,0.843966,2.809930,-0.492802,0.758756,1.773312,0.228318,-0.747284,-0.624049,0.562515,-0.053451,1.034038,-7.268854,-27.242771,21.727598,,,,,,
1480499943.05,0.339750,0.847570,2.837602,-0.159216,0.945879,1.699825,0.220548,-0.749675,-0.623976,0.570285,-0.051061,1.033965,-7.268854,-27.242771,21.727598,,,,,,
1480499943.06,0.333994,0.855161,2.858883,0.367207,0.945165,1.374314,0.215081,-0.754676,-0.619842,0.183158,0.553993,0.893630,-8.657562,-27.123087,21.365349,,,,,,
1480499943.07,0.333031,0.865810,2.871458,0.782608,0.737311,0.950580,0.211844,-0.761620,-0.612418,-0.153876,1.094110,0.476325,-9.301983,-26.927721,21.341610,,,,,,
1480499943.08,0.333861,0.877560,2.876737,0.963957,0.351941,0.556222,0.209406,-0.769182,-0.603745,-0.151437,1.101671,0.467652,-9.301983,-26.927721,21.341610,,,,,,
1480499943.09,0.335448,0.888088,2.876049,0.917111,0.035402,0.209888,0.207686,-0.775867,-0.595732,-0.310241,1.312839,0.325133,-9.301983,-26.927721,21.341610,,,,,,
1480499943.10,0.337576,0.896057,2.873157,0.694381,-0.009458,0.060638,0.206899,-0.780870,-0.589436,-0.495962,1.444459,0.303838,-10.181528,-26.126297,21.928211,,,,,,
1480499943.11,0.339541,0.900245,2.871624,0.282610,0.107152,0.047671,0.206966,-0.783479,-0.585940,-0.593822,1.488298,0.411807,-10.181528,-26.126297,21.928211,,,,,,
1480499943.13,0.339822,0.898798,2.873922,-0.336748,0.213972,0.093000,0.207508,-0.782579,-0.586950,-0.643589,1.459047,0.607259,-10.232367,-25.838274,22.243553,,,,,,
1480499943.14,0.337062,0.890861,2.880634,-0.989795,0.229500,0.131325,0.207935,-0.777613,-0.593364,-0.635792,1.378215,0.848658,-10.232367,-25.838274,22.243553,,,,,,
1480499943.15,0.331098,0.877451,2.890227,-1.480709,0.092860,0.118427,0.207764,-0.769112,-0.604401,-0.560059,1.257012,1.030853,-10.389969,-26.052343,21.918425,,,,,,
1480499943.16,0.322835,0.860628,2.900324,-1.733634,-0.094562,0.050030,0.206839,-0.758252,-0.618281,-0.480505,1.161816,1.146907,-10.456907,-26.356743,21.519030,,,,,,
1480499943.17,0.314364,0.843083,2.908639,-1.690158,-0.239950,-0.058743,0.205677,-0.746698,-0.632566,-0.407825,1.095895,1.184934,-10.456907,-26.356743,21.519030,,,,,,
1480499943.18,0.307297,0.827456,2.913570,-1.401376,-0.337968,-0.188332,0.204706,-0.736212,-0.645048,-0.367960,1.052848,1.125639,-10.411590,-27.117846,20.574610,,,,,,
1480499943.19,0.302575,0.815023,2.914109,-1.022935,-0.430093,-0.363090,0.204369,-0.727741,-0.654695,-0.320946,1.039997,0.956545,-10.411590,-27.117846,20.574610,,,,,,
1480499943.20,0.299729,0.805717,2.910110,-0.671139,-0.573974,-0.547765,0.204496,-0.721328,-0.661716,-0.279493,1.013823,0.536624,-10.117590,-27.732828,19.890150,,,,,,
1480499943.21,0.298416,0.798829,2.902498,-0.410942,-0.648475,-0.700074,0.205083,-0.716540,-0.666717,-0.263875,0.954302,0.251022,-9.853710,-27.946497,19.722855,,,,,,
1480499943.22,0.298410,0.793251,2.892032,-0.269982,-0.718524,-0.841733,0.206251,-0.712638,-0.670528,-0.265043,0.950401,0.254833,-9.853710,-27.946497,19.722855,,,,,,
1480499943.23,0.298930,0.787903,2.880229,-0.250703,-0.736261,-0.895530,0.207719,-0.708876,-0.674053,-0.270189,0.931868,0.235592,-9.853710,-27.946497,19.722855,,,,,,
1480499943.24,0.299255,0.782010,2.869169,-0.338594,-0.682352,-0.842690,0.209166,-0.704707,-0.677966,-0.257124,0.877467,0.302737,-8.707305,-28.394196,19.622581,,,,,,
1480499943.25,0.299182,0.774968,2.860399,-0.504929,-0.546899,-0.717088,0.210574,-0.699693,-0.682707,-0.260089,0.802034,0.431791,-8.298143,-28.537743,19.591614,,,,,,
1480499943.26,0.298398,0.766233,2.854924,-0.729000,-0.387040,-0.545770,0.211828,-0.693426,-0.688686,-0.242010,0.750143,0.566082,-8.298143,-28.537743,19.591614,,,,,,
1480499943.28,0.297008,0.755732,2.852827,-0.951688,-0.229568,-0.387593,0.212989,-0.685821,-0.695906,-0.192771,0.658966,0.702818,-7.674755,-28.887661,19.331181,,,,,,
1480499943.29,0.295514,0.743586,2.852750,-1.118417,-0.120481,-0.325069,0.214360,-0.676932,-0.704140,-0.146352,0.568243,0.817971,-7.674755,-28.887661,19.331181,,,,,,
1480499943.30,0.294495,0.730994,2.853353,-1.128225,-0.039292,-0.297204,0.216100,-0.667610,-0.712459,-0.120091,0.514412,0.892818,-7.354418,-29.352350,18.746876,,,,,,
1480499943.31,0.294325,0.719677,2.853443,-0.966048,-0.002542,-0.303952,0.218156,-0.659142,-0.719680,-0.088777,0.460015,0.924514,-7.354418,-29.352350,18.746876,,,,,,
1480499943.32,0.294793,0.710693,2.852257,-0.717164,-0.050764,-0.332077,0.220205,-0.652359,-0.725216,-0.071736,0.439270,0.893352,-7.150007,-29.823086,18.070816,,,,,,
1480499943.33,0.294670,0.703789,2.849517,-0.518729,-0.225188,-0.392958,0.221418,-0.647111,-0.729535,-0.039411,0.460420,0.637860,-7.150007,-29.823086,18.070816,,,,,,
1480499943.34,0.292978,0.697501,2.845448,-0.479459,-0.466232,-0.470695,0.221354,-0.642304,-0.733790,-0.019618,0.445145,0.447459,-6.886834,-30.131607,17.656475,,,,,,
1480499943.35,0.289118,0.689351,2.840253,-0.698671,-0.725021,-0.616331,0.220005,-0.636036,-0.739632,0.000500,0.405446,0.270485,-6.886834,-30.131607,17.656475,,,,,,
1480499943.36,0.285815,0.675503,2.833741,-1.271505,-0.639443,-0.894103,0.220024,-0.625290,-0.748734,0.001915,0.284119,0.144531,-6.353672,-30.410561,17.375904,,,,,,
1480499943.37,0.288333,0.654126,2.826888,-1.934723,0.045153,-1.082209,0.225658,-0.608466,-0.760820,-0.050381,0.073126,0.073870,-6.353672,-30.410561,17.375904,,,,,,
1480499943.38,0.300464,0.627017,2.822027,-2.429532,1.158893,-1.059177,0.239666,-0.586731,-0.773503,-0.155148,-0.221038,0.024494,-5.583064,-31.051590,16.483980,,,,,,
1480499943.39,0.321225,0.598451,2.821914,-2.531290,2.146521,-0.720319,0.260859,-0.563363,-0.783948,-0.301066,-0.540000,-0.022616,-5.368557,-31.513863,15.657218,,,,,,
1480499943.40,0.343626,0.574678,2.827154,-2.101522,2.365358,-0.209076,0.282785,-0.543564,-0.790297,-0.302988,-0.872375,-0.171815,-5.368557,-31.513863,15.657218,,,,,,
1480499943.41,0.359882,0.559181,2.835595,-1.408746,1.735173,0.216117,0.298526,-0.530492,-0.793386,0.012433,-1.290782,-0.604136,-5.645570,-32.333721,13.775022,,,,,,
1480499943.43,0.363693,0.552442,2.843296,-0.597463,0.349552,0.368994,0.302812,-0.524767,-0.795565,0.459960,-1.793882,-1.326337,-5.645570,-32.333721,13.775022,,,,,,
